[{"id":1,"name":"fdahu","coordinates":{"x":134.0,"y":134.0},"creationDate":"Aug 16, 2022 3:46:07 AM","annualTurnover":452,"fullName":"dahu","employeesCount":1344,"type":"TRUST","postalAddress":{"street":"dhi","zipCode":"1348y134317"}},{"id":2,"name":"fefq","coordinates":{"x":314.0,"y":123.0},"creationDate":"Aug 16, 2022 3:47:00 AM","annualTurnover":431,"fullName":"dnaioj","employeesCount":134,"type":"COMMERCIAL","postalAddress":{"street":"djiq","zipCode":"1341341341341"}},{"id":3,"name":"dai","coordinates":{"x":13.0,"y":14.0},"creationDate":"Aug 20, 2022 11:55:45 PM","annualTurnover":34,"fullName":"djain","employeesCount":14,"type":"PUBLIC","postalAddress":{"street":"cnadi","zipCode":"1453657652"}},{"id":4,"name":"xsabnu","coordinates":{"x":3141.0,"y":134.0},"creationDate":"Aug 21, 2022 1:31:26 AM","annualTurnover":314,"fullName":"ndajn","employeesCount":135,"type":"PUBLIC","postalAddress":{"street":"cnasi14","zipCode":"14379748139"}},{"id":5,"name":"cadh","coordinates":{"x":314.0,"y":341.0},"creationDate":"Aug 21, 2022 2:36:56 AM","annualTurnover":453,"fullName":"daicn","employeesCount":1344,"type":"PRIVATE_LIMIT_COMPANY","postalAddress":{"street":"cadv","zipCode":"315537457"}}]